name,lat,lon,menu,type,district
Baitul Mukarram,23.733,90.412,Traditional Big Iftar,Iftar,Dhaka
Tara Masjid,23.715,90.401,Shahi Tehari,Biriyani,Dhaka
Lalbagh Shahi Mosque,23.718,90.388,Beef Biriyani,Biriyani,Dhaka
Gulshan Azad Mosque,23.784,90.415,Premium Iftar Box,Iftar,Dhaka
Dhanmondi Eidgah Mosque,23.746,90.374,Mutton Biriyani,Biriyani,Dhaka
Anderkilla Shahi Mosque,22.337,91.837,Mejbani Biriyani,Biriyani,Chittagong
Chandanpura Mosque,22.356,91.832,Beef Iftar Pack,Iftar,Chittagong
Shahjalal Mazar Mosque,24.901,91.867,Akhni Biriyani,Biriyani,Sylhet
Shahi Eidgah,24.888,91.880,Beef Iftar Box,Iftar,Sylhet
Rajshahi Shahi Mosque,24.368,88.601,Special Biriyani,Biriyani,Rajshahi
Bagha Mosque,24.185,88.841,Beef Tehari,Biriyani,Rajshahi
Baitul Aman Jame Mosque,22.845,89.540,Chicken Biriyani,Biriyani,Khulna
Khulna Central Mosque,22.815,89.550,Traditional Iftar,Iftar,Khulna
Barisal Central Mosque,22.701,90.353,Beef Biriyani,Biriyani,Barisal
Oxford Mission Mosque,22.698,90.367,Special Iftar Pack,Iftar,Barisal
Rangpur Central Mosque,25.746,89.251,Beef Tehari,Biriyani,Rangpur
Keramotia Mosque,25.755,89.244,Chicken Iftar,Iftar,Rangpur
Mymensingh Central Mosque,24.747,90.407,Mutton Biriyani,Biriyani,Mymensingh
Boro Bazar Mosque,24.753,90.410,Traditional Iftar,Iftar,Mymensingh
Cumilla Shahi Mosque,23.461,91.185,Beef Biriyani,Biriyani,Cumilla
Dharmasagar Mosque,23.458,91.183,Iftar Box,Iftar,Cumilla
Noakhali Central Mosque,22.824,91.101,Beef Tehari,Biriyani,Noakhali
Maijdee Mosque,22.869,91.099,Chicken Iftar,Iftar,Noakhali
Feni Grand Mosque,23.015,91.397,Beef Biriyani,Biriyani,Feni
Trunk Road Mosque,23.017,91.399,Iftar Pack,Iftar,Feni
Brahmanbaria Central Mosque,23.957,91.111,Mutton Biriyani,Biriyani,Brahmanbaria
Titas Mosque,23.959,91.109,Iftar Box,Iftar,Brahmanbaria
Chandpur Shahi Mosque,23.232,90.663,Beef Tehari,Biriyani,Chandpur
Purana Bazar Mosque,23.231,90.661,Traditional Iftar,Iftar,Chandpur
Lakshmipur Central Mosque,22.945,90.830,Chicken Biriyani,Biriyani,Lakshmipur
Sadar Mosque Lakshmipur,22.947,90.828,Iftar Pack,Iftar,Lakshmipur
Tangail Central Mosque,24.251,89.916,Beef Biriyani,Biriyani,Tangail
Atia Mosque,24.263,89.917,Traditional Iftar,Iftar,Tangail
Kishoreganj Sholakia Mosque,24.426,90.782,Mutton Biriyani,Biriyani,Kishoreganj
Pagla Mosque,24.427,90.783,Iftar Box,Iftar,Kishoreganj
Jamalpur Central Mosque,24.937,89.937,Beef Tehari,Biriyani,Jamalpur
Station Road Mosque,24.939,89.935,Iftar Pack,Iftar,Jamalpur
Sherpur Central Mosque,25.020,90.015,Chicken Biriyani,Biriyani,Sherpur
Khowa Mosque,25.022,90.017,Iftar Box,Iftar,Sherpur
Netrokona Central Mosque,24.870,90.727,Beef Biriyani,Biriyani,Netrokona
Moktarpara Mosque,24.872,90.729,Iftar Pack,Iftar,Netrokona
Dinajpur Central Mosque,25.627,88.633,Beef Biriyani,Biriyani,Dinajpur
Gor-e-Shahid Mosque,25.629,88.635,Iftar Box,Iftar,Dinajpur
Thakurgaon Central Mosque,26.033,88.469,Chicken Biriyani,Biriyani,Thakurgaon
Baliadangi Mosque,26.048,88.464,Iftar Pack,Iftar,Thakurgaon
Panchagarh Central Mosque,26.341,88.554,Beef Tehari,Biriyani,Panchagarh
Boda Mosque,26.197,88.563,Iftar Box,Iftar,Panchagarh
Gaibandha Central Mosque,25.329,89.541,Chicken Biriyani,Biriyani,Gaibandha
Gobindaganj Mosque,25.144,89.384,Iftar Pack,Iftar,Gaibandha
Kurigram Central Mosque,25.805,89.636,Beef Biriyani,Biriyani,Kurigram
Nageshwari Mosque,25.965,89.691,Iftar Box,Iftar,Kurigram
Lalmonirhat Central Mosque,25.917,89.445,Chicken Biriyani,Biriyani,Lalmonirhat
Hatibandha Mosque,25.805,89.397,Iftar Pack,Iftar,Lalmonirhat
Nilphamari Central Mosque,25.931,88.856,Beef Biriyani,Biriyani,Nilphamari
Saidpur Central Mosque,25.777,88.891,Iftar Box,Iftar,Nilphamari
Naogaon Central Mosque,24.793,88.931,Chicken Biriyani,Biriyani,Naogaon
Atrai Mosque,24.584,88.955,Iftar Pack,Iftar,Naogaon
Chapainawabganj Central Mosque,24.596,88.277,Beef Biriyani,Biriyani,Chapainawabganj
Shibganj Mosque,24.683,88.150,Iftar Box,Iftar,Chapainawabganj
Bogura Central Mosque,24.851,89.371,Mutton Biriyani,Biriyani,Bogura
Sherpur Bogura Mosque,24.680,89.410,Iftar Pack,Iftar,Bogura
Joypurhat Central Mosque,25.096,89.022,Chicken Biriyani,Biriyani,Joypurhat
Akkelpur Mosque,25.103,88.953,Iftar Box,Iftar,Joypurhat
Pabna Central Mosque,24.006,89.237,Beef Biriyani,Biriyani,Pabna
Ishwardi Mosque,24.128,89.065,Iftar Pack,Iftar,Pabna
Sirajganj Central Mosque,24.453,89.700,Chicken Biriyani,Biriyani,Sirajganj
Belkuchi Mosque,24.323,89.742,Iftar Box,Iftar,Sirajganj
Habiganj Central Mosque,24.374,91.415,Beef Biriyani,Biriyani,Habiganj
Madhabpur Mosque,24.095,91.322,Iftar Pack,Iftar,Habiganj
Moulvibazar Central Mosque,24.482,91.777,Chicken Biriyani,Biriyani,Moulvibazar
Srimangal Mosque,24.308,91.733,Iftar Box,Iftar,Moulvibazar
Sunamganj Central Mosque,25.065,91.395,Beef Tehari,Biriyani,Sunamganj
Chhatak Mosque,25.037,91.669,Iftar Pack,Iftar,Sunamganj
Coxs Bazar Central Mosque,21.427,92.005,Beef Biriyani,Biriyani,Coxs Bazar
Teknaf Mosque,20.862,92.305,Iftar Box,Iftar,Coxs Bazar
Khagrachari Central Mosque,23.120,91.984,Chicken Biriyani,Biriyani,Khagrachari
Dighinala Mosque,23.273,92.012,Iftar Pack,Iftar,Khagrachari
Rangamati Central Mosque,22.732,92.298,Beef Biriyani,Biriyani,Rangamati
Kaptai Mosque,22.496,92.223,Iftar Box,Iftar,Rangamati
Bandarban Central Mosque,22.195,92.218,Chicken Biriyani,Biriyani,Bandarban
Lama Mosque,21.776,92.201,Iftar Pack,Iftar,Bandarban
Gazipur Central Mosque,24.002,90.426,Beef Biriyani,Biriyani,Gazipur
Tongi Boro Mosque,23.891,90.403,Iftar Pack,Iftar,Gazipur
Baitul Aman Mosque,23.623,90.500,Chicken Biriyani,Biriyani,Narayanganj
Chashara Central Mosque,23.620,90.498,Premium Iftar,Iftar,Narayanganj
Narsingdi Central Mosque,23.923,90.717,Beef Tehari,Biriyani,Narsingdi
Madhabdi Mosque,23.936,90.724,Iftar Box,Iftar,Narsingdi
Manikganj Central Mosque,23.861,90.001,Chicken Biriyani,Biriyani,Manikganj
Sadar Bazar Mosque,23.860,89.998,Iftar Pack,Iftar,Manikganj
Munshiganj Central Mosque,23.543,90.530,Beef Biriyani,Biriyani,Munshiganj
Louhajang Mosque,23.467,90.530,Iftar Box,Iftar,Munshiganj
Madaripur Central Mosque,23.164,90.189,Mutton Biriyani,Biriyani,Madaripur
Shibchar Mosque,23.378,90.335,Iftar Pack,Iftar,Madaripur
Shariatpur Central Mosque,23.242,90.434,Chicken Biriyani,Biriyani,Shariatpur
Damudya Mosque,23.255,90.437,Iftar Box,Iftar,Shariatpur
Gopalganj Central Mosque,23.005,89.826,Beef Biriyani,Biriyani,Gopalganj
Kashiani Mosque,23.219,89.972,Iftar Pack,Iftar,Gopalganj
Faridpur Central Mosque,23.607,89.842,Beef Tehari,Biriyani,Faridpur
Boalmari Mosque,23.400,89.675,Iftar Box,Iftar,Faridpur
Bagerhat Central Mosque,22.651,89.789,Chicken Biriyani,Biriyani,Bagerhat
Khan Jahan Ali Mosque Area,22.660,89.789,Traditional Iftar,Iftar,Bagerhat
Satkhira Central Mosque,22.718,89.070,Beef Biriyani,Biriyani,Satkhira
Kaliganj Mosque,22.465,89.082,Iftar Pack,Iftar,Satkhira
Jashore Central Mosque,23.167,89.209,Mutton Biriyani,Biriyani,Jashore
Monihar Mosque,23.170,89.211,Iftar Box,Iftar,Jashore
Jhenaidah Central Mosque,23.544,89.153,Beef Biriyani,Biriyani,Jhenaidah
Kaliganj Mosque Jhenaidah,23.407,89.135,Iftar Pack,Iftar,Jhenaidah
Magura Central Mosque,23.487,89.420,Chicken Biriyani,Biriyani,Magura
Sadar Mosque Magura,23.489,89.418,Iftar Box,Iftar,Magura
Narail Central Mosque,23.172,89.502,Beef Biriyani,Biriyani,Narail
Lohagara Mosque,23.193,89.512,Iftar Pack,Iftar,Narail
Pirojpur Central Mosque,22.584,89.975,Chicken Biriyani,Biriyani,Pirojpur
Mathbaria Mosque,22.290,89.959,Iftar Box,Iftar,Pirojpur
Jhalokathi Central Mosque,22.642,90.198,Beef Biriyani,Biriyani,Jhalokathi
Nalchity Mosque,22.636,90.277,Iftar Pack,Iftar,Jhalokathi
Patuakhali Central Mosque,22.359,90.329,Chicken Biriyani,Biriyani,Patuakhali
Bauphal Mosque,22.462,90.517,Iftar Box,Iftar,Patuakhali
Barguna Central Mosque,22.159,90.126,Beef Biriyani,Biriyani,Barguna
Amtali Mosque,22.135,90.093,Iftar Pack,Iftar,Barguna
Bhola Central Mosque,22.687,90.648,Chicken Biriyani,Biriyani,Bhola
Charfasson Mosque,22.174,90.759,Iftar Box,Iftar,Bhola